[
 {
   "city": "Acworth",
   "country": "United States",
   "description": "Gunshots, voices, strange orbs of light, ghost train. Orbs of light by old grave of unknown Confederate soldier have been reported. Temperature drops about 10 degrees in old train bed. Also gunpowder can be smelled.",
   "location": "Allatoona Battlefield",
   "state": "Georgia",
   "state_abbrev": "GA",
   "longitude": -84.71477139999999,
   "latitude": 34.1134923,
   "city_longitude": -84.6768796,
   "city_latitude": 34.0659329
 },
 {
   "city": "Acworth",
   "country": "United States",
   "description": "Shots of thunder when sunny outside. Sighting of transparent glowing ghosts by Windy Water's grave. And there is a part of the Allatoona Lake named Windy Waters people have looked in the water of there and seen her.",
   "location": "Allatoona Lake",
   "state": "Georgia",
   "state_abbrev": "GA",
   "longitude": -84.6768796,
   "latitude": 34.0659329,
   "city_longitude": -84.6768796,
   "city_latitude": 34.0659329
 },
 {
   "city": "Acworth",
   "country": "United States",
   "description": "Sound of light footsteps, assuming a child, running down the hall. The sound of doors slamming loud enough to wake a sleeping adult and strong enough to feel a vibration on a wall has been reported. The sounds of chairs moving in the kitchen and the icemaker being used have been heard. Furniture moving in the basement office, sounded like banging of a metal file cabinet. A live two-year old running out of his room saying \"Mommy, scaredy me!\" when his mother goes to his room with him he says \" Scaredy go way.\"",
   "location": "Hickory Grove Subdivision",
   "state": "Georgia",
   "state_abbrev": "GA",
   "longitude": -84.5975716,
   "latitude": 34.0631052,
   "city_longitude": -84.6768796,
   "city_latitude": 34.0659329
 },
 {
   "city": "Adairsville",
   "country": "United States",
   "description": "The ghost of the late Julia Barnsley is said to roam throughout the gardens and grounds of Barnsley Gardens. - The property is patrolled by security at night and any chance of investigating would have to be approved by the people at Barnsley.",
   "location": "Barnsley Gardens",
   "state": "Georgia",
   "state_abbrev": "GA",
   "longitude": -84.9860916,
   "latitude": 34.2974243,
   "city_longitude": -84.9341093,
   "city_latitude": 34.3687021
 },
 {
   "city": "Adairsville",
   "country": "United States",
   "description": "The Adair House - There is a little girl that many people have seen on the property and she is usually seen in the Adair house and turns the lights in the attic on and off. The employees have left toys in the attic and they will be in one spot when they leave that day and when they return the next morning they will be moved. Many employees have reported seeing a figure matching the description of Godfrey Barnsley in the cottages at night, he was the owner of the property in the 1800's. - The property is patrolled by security at night and any chance of investigating would have to be approved by the people at Barnsley.",
   "location": "Barnsley Gardens",
   "state": "Georgia",
   "state_abbrev": "GA",
   "longitude": -84.9860916,
   "latitude": 34.2974243,
   "city_longitude": -84.9341093,
   "city_latitude": 34.3687021
 },
 {
   "city": "Adairsville",
   "country": "United States",
   "description": "The Rice House - In the Rice House there have been reports of doors opening and closing and a man in a suit and top hat has been seen by a few people with his arms crossed and staring at you. In a couple of the cottages that were moved in from other locations there have been many ghostly phenomena that occurred and reported by guests. - The property is patrolled by security at night and any chance of investigating would have to be approved by the people at Barnsley.",
   "location": "Barnsley Gardens",
   "state": "Georgia",
   "state_abbrev": "GA",
   "longitude": -84.9860916,
   "latitude": 34.2974243,
   "city_longitude": -84.9341093,
   "city_latitude": 34.3687021
 },
 {
   "city": "Albany",
   "country": "United States",
   "description": "formerly listed on this site as Adams Family Graves - The Adams Family Graves are located on a dirt road near the Baker County line. -  December update: The following was submitted in the past - It is a small family grave yard that also has four unknown civil war soldiers graves. No one knows if the graves belong to confederate or union soldiers. Those are the graves of 3 adults and a child, along with the Adams family members; all marked. -  Driving down the road you can hear moaning and see things moving in the woods but when you reach the grave yard you hear nothing and see nothing except the graves. If you sit in your car for a while you can see people enter the graveyard and hear them talking. then they disappear and you hear and see nothing again. - December 2003 additional information - this area is patrolled by the police and you will be arrested for trespassing.",
   "location": "Stone Gardens",
   "state": "Georgia",
   "state_abbrev": "GA",
   "longitude": -84.1107593,
   "latitude": 31.6010788,
   "city_longitude": -84.15574099999999,
   "city_latitude": 31.5785074
 },
 {
   "city": "Albany",
   "country": "United States",
   "description": "Its a long dirt road, originally w/ 7 churches but you only see 4. People have sited a little girl in a white dress walking down the road and many different ghosts. There has also said to be in the 4th church that if you try to take the bible away then it will not let you out. There have been many sites of pure evil spirits. - December 2003 update - this area is patrolled by the police and you will be arrested for trespassing.",
   "location": "7 churches (Hardup dr.)",
   "state": "Georgia",
   "state_abbrev": "GA",
   "longitude": -84.2101854,
   "latitude": 31.4393433,
   "city_longitude": -84.15574099999999,
   "city_latitude": 31.5785074
 },
 {
   "city": "Albany",
   "country": "United States",
   "description": "An old abandoned mental hospital. It is believed to be haunted by souls that were tortured in the basement of the hospital. There is the stench of blood as you walk in and you can see spirits roaming the grounds. There is also a tunnel in the basement, but no one has ever been to the end of it. If you go to this hospital you will have to park your car in the front of the hospital and walk around it to the back where there is an opening in the fence. It is located off of Turner Rd. Near Kramardie beach. - January 2007 correction: The haunting of the supposed Turner Field Naval Hospital is a rumor. There was never actually a mental hospital at the naval station. There was a small doctor's clinic, but that was all. There is currently a job corps facility using the site.",
   "location": "Turner Field Naval Hospital",
   "state": "Georgia",
   "state_abbrev": "GA",
   "longitude": -84.1036687,
   "latitude": 31.6079012,
   "city_longitude": -84.15574099999999,
   "city_latitude": 31.5785074
 },
 {
   "city": "Alpharetta",
   "country": "United States",
   "description": "Apparently it was shut down in the 70's after 7 elementary school children were killed by a poisoning. A strange presence is all throughout the old school, which has been abandoned ever since then. - March 2008 update Has been torn down.",
   "location": "Hopewell School",
   "state": "Georgia",
   "state_abbrev": "GA",
   "longitude": -84.28120659999999,
   "latitude": 34.1004301,
   "city_longitude": -84.2940899,
   "city_latitude": 34.0753762
 },
 {
   "city": "Alpharetta",
   "country": "United States",
   "description": "A lady's body was found by the Alpharetta police department in the woods behind the old food giant store, The lady seems to be angry about something cause her spirit lurks the area! There has been several times and reports of screaming coming from the wooded 2 acre lot. The Alpharetta police look but never seem to find any evidence of fowl play in the woods, they stay puzzled wondering and waiting for the next...The events have happened at 12:00am on random nights. The Alpharetta police say she only strikes at midnight!",
   "location": "the old Food Giant",
   "state": "Georgia",
   "state_abbrev": "GA",
   "longitude": null,
   "latitude": null,
   "city_longitude": -84.2940899,
   "city_latitude": 34.0753762
 },
 {
   "city": "Altamaha Swamp",
   "country": "United States",
   "description": "The spirits of Native Americans can be heard performing scared rituals inside the caves. Mysterious green lights roam the swamp.",
   "location": "(Near the city of Jesup) – Rock Oven",
   "state": "Georgia",
   "state_abbrev": "GA",
   "longitude": null,
   "latitude": null,
   "city_longitude": -81.9068739,
   "city_latitude": 31.6249316
 },
 {
   "city": "Americus",
   "country": "United States",
   "description": "A girl has been seen and heard walking across the bridge at night.",
   "location": "Leigh Bell Road or 3 Bridges Road",
   "state": "Georgia",
   "state_abbrev": "GA",
   "longitude": null,
   "latitude": null,
   "city_longitude": -84.23268759999999,
   "city_latitude": 32.0723861
 },
 {
   "city": "Americus",
   "country": "United States",
   "description": "Object being thrown, strange lights flashing . !!WARNING!! - NO TRESSPASSING - THE POLICE WILL BE CALLED",
   "location": "old hospital",
   "state": "Georgia",
   "state_abbrev": "GA",
   "longitude": -84.2426503,
   "latitude": 32.0742593,
   "city_longitude": -84.23268759999999,
   "city_latitude": 32.0723861
 },
 {
   "city": "Americus",
   "country": "United States",
   "description": "Legend says that the ghost of a little girl, daughter of a former housekeeper, runs laughing at night. Both the housekeeper and the little girl lived at the hotel and were pushed down the elevator shaft in the early 1900 s. On the third floor you can feel the presence of a little girl. You can also hear a woman's voice and the cry of a baby.",
   "location": "Windsor Hotel",
   "state": "Georgia",
   "state_abbrev": "GA",
   "longitude": -84.23352419999999,
   "latitude": 32.0725928,
   "city_longitude": -84.23268759999999,
   "city_latitude": 32.0723861
 },
 {
   "city": "Andersonville",
   "country": "United States",
   "description": "Camp Sumter - Re enactors experienced a fog, shadows, and a feeling of welcoming (the Re enactors were in Federal, or Union uniform) also cold spots by Providence Spring and Stockade Creek",
   "location": "Andersonville Prison",
   "state": "Georgia",
   "state_abbrev": "GA",
   "longitude": -84.1303207,
   "latitude": 32.2002948,
   "city_longitude": -84.1303207,
   "city_latitude": 32.2002948
 },
 {
   "city": "Andersonville",
   "country": "United States",
   "description": "a civil war re-enactor, for the CSA reports while they were in Andersonville they were visiting the Drummer Boy museum. while in there a woman came in and said that last year, she and her husband were leaving the cemetery, which closes at 5 pm. She said that she was just scanning the scene one more time and that she saw a man on a crutch. He was missing a leg and wearing a confederate uniform standing beside one of the graves. she asked her husband if he saw it, not taking her eyes off the man. she pointed to her husband and he too saw it. at first they thought it was a re-enactor, but they were all at the camp. when they passed the spot, the man looked in his rear-view mirror and no one was there.",
   "location": "Andersonville prison cemetery",
   "state": "Georgia",
   "state_abbrev": "GA",
   "longitude": -84.1303207,
   "latitude": 32.2002948,
   "city_longitude": -84.1303207,
   "city_latitude": 32.2002948
 },
 {
   "city": "Andersonville",
   "country": "United States",
   "description": "The feeling of people reaching out to you with outstretched arms. You feel despair, suffering and so much death.",
   "location": "Andersonville Civil War Prison",
   "state": "Georgia",
   "state_abbrev": "GA",
   "longitude": -84.1303207,
   "latitude": 32.2002948,
   "city_longitude": -84.1303207,
   "city_latitude": 32.2002948
 },
 {
   "city": "Appling County",
   "country": "United States",
   "description": "The Surrency Ghost Light is said to be seen on a long deserted railroad track which sits low under a bridge on Highway 341. The old story is told many ways, but the most popular is of a husband and his wife that lived next to the tracks. One night after a heated argument, the wife ran blindly out of the house and down the tracks. She was hit and killed by an oncoming train. Witnesses today say they can see the light of the man on the tracks trying to find his long dead wife. Some have even claimed to see the silhouette of a lady with long blond hair walking down the tracks at night. - October 2004 update: The locals call her the blue lady. This is also the Wayne County - Jesup Spooklight - listed below. it can be seen in both places along the tracks.",
   "location": "Surrency",
   "state": "Georgia",
   "state_abbrev": "GA",
   "longitude": -82.19790119999999,
   "latitude": 31.7238139,
   "city_longitude": -82.25832969999999,
   "city_latitude": 31.712238
 },
 {
   "city": "Athens",
   "country": "United States",
   "description": "Cold spots found all over in this early 1800's cemetery. Around the Conger family plot tends to be the strongest. Also feelings of not being alone have been reported.",
   "location": "Old Athens Cemetery",
   "state": "Georgia",
   "state_abbrev": "GA",
   "longitude": -83.3722585,
   "latitude": 33.9544387,
   "city_longitude": -83.357567,
   "city_latitude": 33.9519347
 },
 {
   "city": "Athens",
   "country": "United States",
   "description": "Birthday cake house - There is a sorority house in Athens GA. That is in the shape of a birthday cake. It has black surrounding stairwells, and the house is white. In 1979 a sorority girl committed suicide in her room at the top floor after her new fiancé broke the engagement. Every year since in the same room where a girl resides. She becomes engaged over the corresponding year. Even son still woman's apparition is seen and heard in the hallway of her floor. Still to this day the same sorority resides in this residence on Miledge Ave.",
   "location": "Clarke County",
   "state": "Georgia",
   "state_abbrev": "GA",
   "longitude": -83.357567,
   "latitude": 33.9519347,
   "city_longitude": -83.357567,
   "city_latitude": 33.9519347
 },
 {
   "city": "Atlanta",
   "country": "United States",
   "description": "cold spots and footsteps are reported here.",
   "location": "Donaldson House",
   "state": "Georgia",
   "state_abbrev": "GA",
   "longitude": -84.31730370000001,
   "latitude": 33.9327843,
   "city_longitude": -84.3879824,
   "city_latitude": 33.7489954
 },
 {
   "city": "Atlanta",
   "country": "United States",
   "description": "Brook Run -  in the back of the park is a gated off area, when inside go down the road and go in the building on the right. There is a huge abandoned building that was a home for the mentally challenged. There are various areas with temperature changes, an extremely strange aura to the place, and pictures will reveal orbs. cold spots on first and second floor, footsteps heard, doors open and close, and banging sounds on the walls. The most haunted is the 3rd floor it many believe a little boy hunts it. - March 2008 update Has been torn down",
   "location": "Dunwoody",
   "state": "Georgia",
   "state_abbrev": "GA",
   "longitude": -84.3363545,
   "latitude": 33.9119941,
   "city_longitude": -84.3879824,
   "city_latitude": 33.7489954
 },
 {
   "city": "Atlanta",
   "country": "United States",
   "description": "The face of a Confederate private has been photographed in a window.",
   "location": "Fox building",
   "state": "Georgia",
   "state_abbrev": "GA",
   "longitude": -84.3856028,
   "latitude": 33.7725845,
   "city_longitude": -84.3879824,
   "city_latitude": 33.7489954
 },
 {
   "city": "Atlanta",
   "country": "United States",
   "description": "Years ago a rock singer was killed on stage by a gunshot that come from the stadium. His spirit stills walks thru the seating area. Some have said that you can feel his hand on your neck.",
   "location": "Hi-Fi Buys Amphitheater",
   "state": "Georgia",
   "state_abbrev": "GA",
   "longitude": -84.39716419999999,
   "latitude": 33.7035481,
   "city_longitude": -84.3879824,
   "city_latitude": 33.7489954
 },
 {
   "city": "Atlanta",
   "country": "United States",
   "description": "After-hours people have spotted the ghost of a tall black man wandering around inside the club. Heavy music amplifiers are found turned upside down. Also unexplained footsteps, cold spots, and unearthly screams are heard around the backstairs. The nightclub is rumored to be frequented by true vampires. It is said that a vampire actually lives on the premises. The building was once a textile mill where several young girls died in accidents and others developed tuberculosis because of the dangerous working conditions. Shrieks, footsteps and other noises are frequently heard during non-business hours on the back stairs, where cold spots are often felt. The building has been the site of a number of freak accidents including fires and structural collapses.",
   "location": "The Masquerade",
   "state": "Georgia",
   "state_abbrev": "GA",
   "longitude": -84.38963729999999,
   "latitude": 33.7517791,
   "city_longitude": -84.3879824,
   "city_latitude": 33.7489954
 },
 {
   "city": "Atlanta",
   "country": "United States",
   "description": "There's a bridge right over Metropolitan Ave by University St. It's said that a young lady in a white dress stands under the bridge looking for a ride home. When one picks the woman up and takes her home, she gets out the car and says Thanks for the ride. Then she vanishes in thin air. Most people that pick this young lady up usually goes to the door of the young women house to make sure she made it in or where she went to. But when the door opens, it is the woman's mother and she tells the people that every year someone comes to the house to drop off her daughter. The girl is her daughter who had been killed in a horrible car accident 10 years ago under a bridge on Metropolitan St. formerly known as Stewart Avenue.",
   "location": "Metropolitan Ave.",
   "state": "Georgia",
   "state_abbrev": "GA",
   "longitude": -84.3444507,
   "latitude": 33.74265320000001,
   "city_longitude": -84.3879824,
   "city_latitude": 33.7489954
 },
 {
   "city": "Atlanta",
   "country": "United States",
   "description": "This cemetery is the resting place for 3,000 to 4,500 confederate soldiers that died during Sherman's Invasion of Atlanta. In one section of the cemetery is a statue of a large wounded lion in honor of The Unknown Confederate Soldier. People hear a disembodied voice giving \"The Roll Call of Dead\", somberly calling out the names of the long dead soldiers.",
   "location": "Oakland Cemetery",
   "state": "Georgia",
   "state_abbrev": "GA",
   "longitude": -84.3729865,
   "latitude": 33.7485884,
   "city_longitude": -84.3879824,
   "city_latitude": 33.7489954
 },
 {
   "city": "Atlanta",
   "country": "United States",
   "description": "During a production of Henry IV Part I in 1993, the actor playing Falstaff suddenly came from the men's dressing room, very shaken. He had seen a very young boy dressed in a velvet suit much like children wore in the 1800's beside his dressing table. Others have seen passing images and odd lights over the years. Sometimes when the theater is pretty much deserted, voices will be heard, as if a group is meeting together. There is a room in the top level of the building that sensitive people will not enter, because it is clammy and the energy feels terrible in there. An old man has been spotted on a couple of occasions. A female energy once warned of a fire, and sometimes upsets things in the women's dressing room. Occasionally a shadowy figure can be seen on the catwalk above the stage.",
   "location": "The Shakespeare Tavern",
   "state": "Georgia",
   "state_abbrev": "GA",
   "longitude": -84.38520179999999,
   "latitude": 33.7681757,
   "city_longitude": -84.3879824,
   "city_latitude": 33.7489954
 },
 {
   "city": "Atlanta",
   "country": "United States",
   "description": "People have seen a little girl wondering around pretending like she is lost. If you follow her she will lead you so far into the woods you won't be able to find your way back, then you will turn around and she will vanish!",
   "location": "Six Flags",
   "state": "Georgia",
   "state_abbrev": "GA",
   "longitude": -84.55153700000001,
   "latitude": 33.7705277,
   "city_longitude": -84.3879824,
   "city_latitude": 33.7489954
 },
 {
   "city": "Atlanta/Fulton",
   "country": "United States",
   "description": "Old mansion, now high-class restaurant. Dishware flying across the restaurant has been reported. Large orbs can be seen on film. People that \"were never there\" play tricks on the surrounding grounds. Voices heard when you're alone. The feelings of cold sensations when you pass through doorways, and hand on your back are strong.",
   "location": "Anthony's Restaurant",
   "state": "Georgia",
   "state_abbrev": "GA",
   "longitude": -84.30895579999999,
   "latitude": 33.8673253,
   "city_longitude": -84.3879824,
   "city_latitude": 33.7489954
 },
 {
   "city": "Augusta",
   "country": "United States",
   "description": "Augusta State University was a civil war headquarters and behind the Admissions office (a converted antebellum mansion) there is a small cemetery of the Walker family and there have been sightings of a man dressed in a confederate uniform walking across the campus and disappearing into the cemetery.",
   "location": "Augusta State University",
   "state": "Georgia",
   "state_abbrev": "GA",
   "longitude": -82.0229739,
   "latitude": 33.4758562,
   "city_longitude": -82.0105148,
   "city_latitude": 33.4734978
 },
 {
   "city": "Augusta",
   "country": "United States",
   "description": "Bellevue Hall - The ghost of Emily Galt is said to haunt the building. Emily etched her name (\"Emily Galt, 1816\") in the glass of one of the windows before her fiancé left and was killed, in the Civil War. Finding out her betrothed was dead; she threw herself out of one of the upper windows, and died. It's said at night you can hear the two lovers arguing over whether or not he should go off to battle. Phones and TVs mysteriously go haywire. The widow still exists and is in storage at the university.",
   "location": "Augusta State University",
   "state": "Georgia",
   "state_abbrev": "GA",
   "longitude": -82.0229739,
   "latitude": 33.4758562,
   "city_longitude": -82.0105148,
   "city_latitude": 33.4734978
 },
 {
   "city": "Augusta",
   "country": "United States",
   "description": "Benet House - Footsteps upstairs, strange sights in mirrors and the sounds of rocking chairs and doors slamming by themselves.",
   "location": "Augusta State University",
   "state": "Georgia",
   "state_abbrev": "GA",
   "longitude": -82.0229739,
   "latitude": 33.4758562,
   "city_longitude": -82.0105148,
   "city_latitude": 33.4734978
 },
 {
   "city": "Augusta",
   "country": "United States",
   "description": "People have witnessed the ghost of a young girl in a 1800s style wedding dress. They say a young girl (named Emily) died there of a broken heart, after her fiance was killed.",
   "location": "Partridge Inn",
   "state": "Georgia",
   "state_abbrev": "GA",
   "longitude": -82.0100137,
   "latitude": 33.4752202,
   "city_longitude": -82.0105148,
   "city_latitude": 33.4734978
 },
 {
   "city": "Augusta",
   "country": "United States",
   "description": "Small cemetery in the park belongs to the Bugg family. The park is the former site of the Bugg Plantation, purchased pre-1842 by Judge John P. King and donated to the city by his son, Henry King, upon his death. Reports have been made for years involving a white figure that darts in and out of the trees surrounding the brick walled cemetery, and in and out of the cemetery itself. There are also tales of a Camellia bush that grew beside the old mansion (now burned down), it would bloom profusely in warning of the coming death of one of the King family.",
   "location": "Pendleton King Park",
   "state": "Georgia",
   "state_abbrev": "GA",
   "longitude": -82.012639,
   "latitude": 33.4588712,
   "city_longitude": -82.0105148,
   "city_latitude": 33.4734978
 },
 {
   "city": "Augusta",
   "country": "United States",
   "description": "There is a round pillar that stands about eight feet tall on a corner of Broad street in downtown Augusta that is said to be the remains of the old slave market from years ago. On several occasions, this pillar is scheduled to be removed for development, but on each occasion the person who was supposed to remove it died unexpectedly. A few years ago a driver lost control of his car and bumped into the pillar. He was dead in his car when the police arrived, but the accident was not life threatening. It is said that a slave put a curse on the pillar to which he was tied as he was being sold. For whatever reason, the pillar still stands alone with nothing else around it on the corner of Broad Street.",
   "location": "The Pillar",
   "state": "Georgia",
   "state_abbrev": "GA",
   "longitude": -81.9588606,
   "latitude": 33.4726131,
   "city_longitude": -82.0105148,
   "city_latitude": 33.4734978
 },
 {
   "city": "Austell",
   "country": "United States",
   "description": "Amoco Gas Station in Parking Lot - The Amoco gas station in the parking lot at Six Flags over Georgia is haunted. Apparently a little girl about 9 years old with blond hair was hit and killed by a car in the early 70's. Today guests report seeing a little 9 year old girl come running up to them crying \"Mommy, Mommy, Please help me find my Mommy!\". The guests usually think this is a typical lost child. The guests agree to take the girl to someone to find her mommy and proceed with her. They get no more than 10 yards when they notice the little girl has completely disappeared and is nowhere in sight. Some people have actually gotten a photo of the little girl.",
   "location": "Six Flags Over Georgia",
   "state": "Georgia",
   "state_abbrev": "GA",
   "longitude": -84.55153700000001,
   "latitude": 33.7705277,
   "city_longitude": -84.6343783,
   "city_latitude": 33.8126059
 },
 {
   "city": "Austell",
   "country": "United States",
   "description": "Crystal Pistol Music Hall - According to legend, back in 1967 when Six Flags over Georgia first opened; an actor by the name of \"Joe\" was to star in the opening number for the very first show at the Crystal Pistol. Due to unfortunate circumstances, Joe was killed in an automobile accident on his way to work. Apparently, Joe is still waiting to perform that number. Several sightings have occurred in the Crystal Pistol of a man who stands at the edge of the balcony and watched performances that are currently being put on. Orbs have been found in photographs taken inside the music hall. After closing, many employees will hear a man singing backstage even though there is nobody back there. Employees have also found props missing from the stage and later find the props next to the Railroad tracks, which run beside the theater.",
   "location": "Six Flags Over Georgia",
   "state": "Georgia",
   "state_abbrev": "GA",
   "longitude": -84.55153700000001,
   "latitude": 33.7705277,
   "city_longitude": -84.6343783,
   "city_latitude": 33.8126059
 },
 {
   "city": "Austell",
   "country": "United States",
   "description": "Six Flags Over Georgia Railroad - It is believed that the Six Flags Over Georgia Railroad is haunted. Apparitions have been seen walking across the Lickskillet Railroad Bridge. The apparitions are dressed like from the 1800's wear but since the park has only been there since 1967 the spirits are likely those from the train robbery which was put on each train ride back in Six Flags' early history. No noise comes from the apparitions, however. They just walk by as if going to wait for the next train to come by so they can have their hourly shoot-out with the conductor and the engineers.",
   "location": "Six Flags Over Georgia",
   "state": "Georgia",
   "state_abbrev": "GA",
   "longitude": -84.55153700000001,
   "latitude": 33.7705277,
   "city_longitude": -84.6343783,
   "city_latitude": 33.8126059
 },
 {
   "city": "Austell",
   "country": "United States",
   "description": "a pale figure rides a horse late at night and will chase you to a certain point.",
   "location": "railroad tracks of Thornton Rd",
   "state": "Georgia",
   "state_abbrev": "GA",
   "longitude": null,
   "latitude": null,
   "city_longitude": -84.6343783,
   "city_latitude": 33.8126059
 },
 {
   "city": "Bainbridge",
   "country": "United States",
   "description": "People have seen a ball of fire hovering over the cemetery, and then in the next few days a new grave will need to be dug. People have also seen a large ghostly black dog with a blood-curdling howl that doesn't leave any tracks.",
   "location": "New Enterprise Freewill Baptist Church",
   "state": "Georgia",
   "state_abbrev": "GA",
   "longitude": null,
   "latitude": null,
   "city_longitude": -84.57546990000002,
   "city_latitude": 30.9037995
 },
 {
   "city": "Barnesville",
   "country": "United States",
   "description": "Full-body apparitions have been seen here, footsteps heard in the gravel inside the cemetery, cold-spots that measured at below-zero temperatures, one person even reported feeling a hand touch her shoulder.",
   "location": "Sappington Cemetery on Bush Road",
   "state": "Georgia",
   "state_abbrev": "GA",
   "longitude": -84.1054937,
   "latitude": 33.0249361,
   "city_longitude": -84.15574950000001,
   "city_latitude": 33.0545709
 },
 {
   "city": "Barnesville",
   "country": "United States",
   "description": "Behind the Gordon College Commons, adjacent to the baseball fields is one the scariest places in Georgia. All one need do is walk the two mile trasil just after midnight. Ask anybody who's done what they see everytime. It's just too good to be spoiled. Good news: It's a public walking path that is always open. Bring a flashlight...you'll need it. Need a tour guide, ask around campus for Chris Mckinley. That guy will tell you some tales.",
   "location": "The Walking Path",
   "state": "Georgia",
   "state_abbrev": "GA",
   "longitude": null,
   "latitude": null,
   "city_longitude": -84.15574950000001,
   "city_latitude": 33.0545709
 },
 {
   "city": "Bartow County",
   "country": "United States",
   "description": "Stories from around here say that a couple was driving across the single lane bridge one night when headlight of another car appeared on the other side of the bridge instead of backing up he turned the car off the bridge and landed in the water below. If you walk across the bridge you will hear voices and screams and you'll get about half way across the bridge and see headlights coming toward the bridge hitting the bank on the other side of the bridge but they never make it to the bridge. - March 2008 update: has been indefinitely closed due to safety issues. They are possibly putting up a modern bridge.",
   "location": "Hardin Bridge Road",
   "state": "Georgia",
   "state_abbrev": "GA",
   "longitude": -84.93450759999999,
   "latitude": 34.211764,
   "city_longitude": -84.8150781,
   "city_latitude": 34.2660473
 },
 {
   "city": "Blairsville",
   "country": "United States",
   "description": "This man who worked there got tired of life so the man hung himself with the boot laces. Drive by there late at night and you can see him looking out at you. Go to the back of the building and look through the window there will be a light on and you can see the mans body hanging there.",
   "location": "Old Boot Factory",
   "state": "Georgia",
   "state_abbrev": "GA",
   "longitude": null,
   "latitude": null,
   "city_longitude": -83.95824119999999,
   "city_latitude": 34.8761989
 },
 {
   "city": "Blue Ridge",
   "country": "United States",
   "description": "Tilly Bend Church - Very old church & graveyard on a dirt road off Aska Rd. A large number of young children are buried here. Strange lights have appeared hovering over tombstones late at night.",
   "location": "Fannin",
   "state": "Georgia",
   "state_abbrev": "GA",
   "longitude": -84.32408699999999,
   "latitude": 34.8639719,
   "city_longitude": -84.32408699999999,
   "city_latitude": 34.8639719
 },
 {
   "city": "Bonaire",
   "country": "United States",
   "description": "This legendary hill is easily reached from Bonaire if you follow State Route 96 East across the Ocmulgee River to the intersection of US Route 129. Once you have turned left and passed over the first hill, go to the next hill bottom and stop. Put your car in neutral and it will go all the way to the top of the next hill. It is said that a witch is buried around there. The only evidence of her grave is located in the swamp, about 300 yards from Highway 129. It is a strange pile of rocks stacked about 5 feet high with nothing growing around it. Legend has it that the witch exacted a toll on this trail about 200 years ago. If you paid her price, she would help you cross over the ridges. The locals left her alone and occasionally called upon her during a drought. The witch died of natural causes around 1850. Since she could not be buried on holy ground in a church cemetery, the locals took her body to the swamp. It is believed that she helps people over the ridge because of the kindness the local people showed to her.",
   "location": "Gravity Hill",
   "state": "Georgia",
   "state_abbrev": "GA",
   "longitude": null,
   "latitude": null,
   "city_longitude": -83.5960161,
   "city_latitude": 32.5437575
 },
 {
   "city": "Braselton",
   "country": "United States",
   "description": "The older employees at Town Hall will talk about \"Little John\" inhabiting the house.  Town Hall operates out of what used to be a residence built in approximately 1910 by of one of the Braseltons.  The place later because a boarding house/hotel, an event house for weddings and then eventually the city renovated it in the late 90's and used to it to house its town hall, police department and water utility office. Older employees talk about things being moved, odd knocking and footsteps on the stairwell after the close of business, and opening up the business in the morning to find closed/locked desk drawers opened.  Most recently, two employees were standing in the upstairs landing in broad daylight talking when they heard an odd knocking coming from one of the interior closets near the window that is near the attic. One of the police department canines visibly refuses to enter a downstairs conference room that was originally a formal dining room. Little John was at first thought to be some sort of myth created by one of the former patrol division members to delight and scare the female staff members, but some current and some retired employees can tell of the oddities that have sometimes occurred in the house.  \"Little John\" was supposedly a son of one of the Braseltons that had some slight mental problems. Little John allegedly occupied the house for a while and used to pick up stray dogs as pet.  He and the dogs mostly resided in the attic until his death. Although rarely talked about, there is also a report of one of the former Braselton matrons being seen in the downstairs bathroom. Prior to the house becoming the Town Hall, it was sometimes used for wedding receptions and other events. Supposedly, a guest at one of the weddings proclaimed to be a psychic and he told of seeing people dressed in formal attire from the twenties standing in the hall and of seeing the Braselton female in and around the bathroom. Being that no harm ever seems to be done, some of the employees just laugh when things occur and write it off as Little John being in the house. Some other employees are a little creeped out do not like staying late or by themselves in the building.",
   "location": "Braselton Town Hall",
   "state": "Georgia",
   "state_abbrev": "GA",
   "longitude": -83.762024,
   "latitude": 34.1069099,
   "city_longitude": -83.7626729,
   "city_latitude": 34.1092735
 },
 {
   "city": "Bremen",
   "country": "United States",
   "description": "In the late 70's early 80's a teenager was in a wrestling match in the gym, and was accidentally killed when his neck broke during a match. When you are in the gym and its quiet you can hear the sound of his neck breaking and the sound of someone walking on the top bleachers and moving the handles on the doors.",
   "location": "Bremen High School Gym",
   "state": "Georgia",
   "state_abbrev": "GA",
   "longitude": -85.1389502,
   "latitude": 33.7176884,
   "city_longitude": -85.1455036,
   "city_latitude": 33.7212179
 },
 {
   "city": "Buford",
   "country": "United States",
   "description": "Has been mistaken for the Old Buford Hospital. This place has not yet been found. though there are rumors it is now a private residence.",
   "location": "Antebellum Asylum",
   "state": "Georgia",
   "state_abbrev": "GA",
   "longitude": null,
   "latitude": null,
   "city_longitude": -84.0043513,
   "city_latitude": 34.1206564
 },
 {
   "city": "Buford",
   "country": "United States",
   "description": "RT 23 (Buford hwy) - It is a really hard place to find, but now construction has been booming in that area (new mall of GA), area kids have found the place. They say it is haunted and that some homeless, transient kids live there part-time. Update: If this is the same place off hwy 23 in Buford Georgia, just behind the public library, then it is indeed boarded up all around. The place is boarded up but there is access due to local area teenagers who torn down the boards on the side. The parking lot for the place is now used as a car lot and soon the land will be sold. This place is patrolled by police and you will be arrested for trespassing.Understand this place is being watched carefully by the police and that the Shadowlands does not promote not condone trespassing.",
   "location": "Old Buford Hospital",
   "state": "Georgia",
   "state_abbrev": "GA",
   "longitude": -84.001002,
   "latitude": 34.109155,
   "city_longitude": -84.0043513,
   "city_latitude": 34.1206564
 },
 {
   "city": "Buford",
   "country": "United States",
   "description": "has a picture hanging on the wall of an old abandoned house on Braselton Highway(124) in Braselton. The photo captures spirits looking out of the attic window...creepy. The photo is hanging on a wall near the restrooms in the back of the store. Check it out.",
   "location": "Hobby Lobby",
   "state": "Georgia",
   "state_abbrev": "GA",
   "longitude": -84.0013527,
   "latitude": 34.0939991,
   "city_longitude": -84.0043513,
   "city_latitude": 34.1206564
 },
 {
   "city": "Calhoun",
   "country": "United States",
   "description": "The old \"Place on Peidmont\" restaurant. Was once a home long ago. It is said that there was a lady and child that lived there. The little girl was run over in road and the lady lived there until she died from old age. Many employees have said that the lady steals jewelry. Cold spots, feelings of being watched have all been reported. Upstairs, you can feel something lurking. Watch out for the bathroom, sometimes locks people inside in the dark.",
   "location": "El Rayos Authentic Mexican Restaurant",
   "state": "Georgia",
   "state_abbrev": "GA",
   "longitude": -84.9508182,
   "latitude": 34.4969606,
   "city_longitude": -84.9510542,
   "city_latitude": 34.502587
 },
 {
   "city": "Carnsville",
   "country": "United States",
   "description": "People call it \"Red Eyes\" but a lot of people who has been down there after midnight (hunting or whatever) see a woman-like body, slightly glowing...she will be at the woods line her back facing you...then she will turn around and have big brightly glowing red eyes. There is also and old rundown house on that same road that is said to be haunted. there is no power connected to the house and many people have seen lights in the windows.",
   "location": "Old Stagecoach Rd.",
   "state": "Georgia",
   "state_abbrev": "GA",
   "longitude": -83.2681815,
   "latitude": 34.3947325,
   "city_longitude": -83.23515499999999,
   "city_latitude": 34.3698266
 },
 {
   "city": "Carrollton",
   "country": "United States",
   "description": "There was a Target Dept. store under construction, when the police were chasing someone that had gotten away from them. He climbed up on the upper beams of the structure trying to get away, and fell to his death. Everyone that has ever worked there has said that it gets strangely cold even during the summer in the stock room. They also say that you can hear running footsteps but there would be no one back there. You can hear things falling but nothing actually did. In the front of the store in the offices, strange smells will occur.",
   "location": "Target",
   "state": "Georgia",
   "state_abbrev": "GA",
   "longitude": -85.0765011,
   "latitude": 33.558919,
   "city_longitude": -85.0766113,
   "city_latitude": 33.5801103
 },
 {
   "city": "Cartersville",
   "country": "United States",
   "description": "50 years ago a 12 year old a girl was riding her horse at this site and the horse went berserk and she ran into a branch and it beheaded her. Now there have been sightings of her in the woods by her grave inside the camp. She looks transparent and glowing.",
   "location": "Camp Sandmann",
   "state": "Georgia",
   "state_abbrev": "GA",
   "longitude": -84.71749109999999,
   "latitude": 34.1007583,
   "city_longitude": -84.7999382,
   "city_latitude": 34.1650972
 },
 {
   "city": "Cartersville",
   "country": "United States",
   "description": "Some say a little Indian girl was hung from the rafters of this bridge and to this day u can still hear the rope swaying back and forth and a little girl crying.",
   "location": "Covered bridge",
   "state": "Georgia",
   "state_abbrev": "GA",
   "longitude": -84.9310875,
   "latitude": 34.1426887,
   "city_longitude": -84.7999382,
   "city_latitude": 34.1650972
 },
 {
   "city": "Cave Spring",
   "country": "United States",
   "description": "In downtown Cave Spring Ga. there is an old school for the Deaf which has buildings that were used during the Civil War. One of there buildings is a former infirmary. There are still bloodstains on the walls and floor and footsteps and crying can be heard. A physic was hired to investigate the building but refused to enter when she arrived because she said \"There were to many evil spirits present\". There is also a ghost of a lady that can be seen wandering through the vast fields of kudzu around the campus. People report having seen her usually after they see herds of deer standing and then running away.",
   "location": "Old School for the Deaf",
   "state": "Georgia",
   "state_abbrev": "GA",
   "longitude": -85.349041,
   "latitude": 34.0960231,
   "city_longitude": -85.33634339999999,
   "city_latitude": 34.1075975
 },
 {
   "city": "Cedartown",
   "country": "United States",
   "description": "Creepy old Cemetery, lots of old graves. Ghostly figures witnessed at night in cemetery and in horse pasture next to cemetery.",
   "location": "Old Cemetery behind Bethlehem Baptist Church",
   "state": "Georgia",
   "state_abbrev": "GA",
   "longitude": null,
   "latitude": null,
   "city_longitude": -85.25658229999999,
   "city_latitude": 34.0112715
 },
 {
   "city": "Chatsworth",
   "country": "United States",
   "description": "once the only road in or out of Chatsworth. The area has histories involving civil war battles and the Trail of Tears. People have reported seeing the apparitions of Civil War soldiers and Indians. Glowing eyes fly into windshields, unknown things run along the side of cars, loud crashes are heard from the woods, fireballs have been seen rolling across the road. Strange things are seen standing just off the side of the road. The area is always windy and foggy even during calm weather. Several houses around the area are haunted, and one house on the stretch of highway was the site of double ax murder.",
   "location": "Old Hwy 411",
   "state": "Georgia",
   "state_abbrev": "GA",
   "longitude": -84.7096565,
   "latitude": 34.6619837,
   "city_longitude": -84.7699385,
   "city_latitude": 34.7659145
 },
 {
   "city": "Cherokee County",
   "country": "United States",
   "description": "Hell Church - is a place located in the old part of Canton. There is a long narrow road going back into the woods that is very difficult to get down. You then come upon a church, out in the middle of nowhere, there is a very small (one room ) and white. Located directly across the road is a cemetery with graves dating back to the 18th century. Although there have been accounts of graves freshly dug. The story goes that back in the 80's a boy was found mutilated. Most say that it was a cult killing. But the church was shut down and the newspaper clipping of this horrible event still exists. The church has been re-opened but there are still accounts of hearing faint piano music coming from inside the church late at night.",
   "location": "Canton",
   "state": "Georgia",
   "state_abbrev": "GA",
   "longitude": -84.4907621,
   "latitude": 34.2367621,
   "city_longitude": -84.4802606,
   "city_latitude": 34.2514526
 },
 {
   "city": "Chickamauga",
   "country": "United States",
   "description": "Many things reported in this area: Every night, a mysterious fog rolls in upon the battlefield. Upon driving through the park, one may find that there is no fog before entering or after leaving the park, only in the park itself. -There are also tales of the infamous \"Green Eyes\", a confederate soldier killed by his Yankee twin brother, whose eyes can still be seen at night on Snod Grass Hill. An apparition of a soldier walking down the road has been reported. They also say that if you notice him and he notices you, he will stare you down until you are out of sight. There is the tale of the bride-never-to-be who still walks the battlefield in her wedding gown during September and October, visiting the grave of the man she was going to marry, killed during the war.",
   "location": "Chickamauga Battlefield",
   "state": "Georgia",
   "state_abbrev": "GA",
   "longitude": -85.26978489999999,
   "latitude": 34.9319286,
   "city_longitude": -85.2907896,
   "city_latitude": 34.8711879
 },
 {
   "city": "Clarkesville",
   "country": "United States",
   "description": "Cannon Bridge - A husband threw his wife off the bridge. If one sits on the bridge with their car turned off on the nights of April 12-14, the bridge becomes covered with fog and the couple can be heard arguing. After a period of silence, a loud splash can be heard. On several occasions, the wife has walked up to the car. And on several occasions, people driving across the bridge on said nights have had their cars to stop, turn off, and all electrical systems stop. They then HAVE to bear witness to the events of the night. - December 2003 update: The Bridge is in Demorest on Hwy 115/Cannon Bridge road. A new Bridge has been built and opened on 10/30/03. They have started to tear down the old bridge the same day. About 1/4 of the bridge that was build in 1950 is gone.",
   "location": "Habersham County",
   "state": "Georgia",
   "state_abbrev": "GA",
   "longitude": -83.5248933,
   "latitude": 34.6125971,
   "city_longitude": -83.5248933,
   "city_latitude": 34.6125971
 },
 {
   "city": "Cleveland",
   "country": "United States",
   "description": "Friendship Nursing Home - Little boy wearing a red cap haunts. If seen three deaths of the residents will happen, two expected one nut. Boy also appears outside in the cold, and the elderly residents throw their sheets and blankets out to him because he looks cold!",
   "location": "White County Georgia",
   "state": "Georgia",
   "state_abbrev": "GA",
   "longitude": -83.7632366,
   "latitude": 34.5970402,
   "city_longitude": -83.7632366,
   "city_latitude": 34.5970402
 },
 {
   "city": "Clinch",
   "country": "United States",
   "description": "Strange noises. Bright lights. Graves Glow in pictures. Church lights up.",
   "location": "Antioch Church",
   "state": "Georgia",
   "state_abbrev": "GA",
   "longitude": -82.5920811,
   "latitude": 30.9513256,
   "city_longitude": -82.82097399999999,
   "city_latitude": 30.9716985
 },
 {
   "city": "Clinch",
   "country": "United States",
   "description": "\"Cogdell Light\" -  Most folks in southeast Georgia have traveled to this tiny settlement on the fringe of the Okefenokee swamp late at night to see the \"Cogdell light.\" Young couples are especially drawn to drive into the woods on one of the deserted roads, turn off the car, and flash the headlights a few times to conjure up the \"ghost.\" If their visit is timed just right, an eerie greenish yellow glow coming from out of nowhere may be seen making its way slowly toward them in the darkness. Some say it's the ghost of an unknown man whose head was severed in a train accident. He swings a lantern in a futile search for his missing part. Others say the \"light\" is the glow of the lantern swung by two lovers in their effort to stop the train late at night. Their parents forbid them to see each other, thus they planned this escape but were shot by her father who thought they were prowlers. The \"light\" is a ghostly reminder of their tragic love.",
   "location": "Cogdell",
   "state": "Georgia",
   "state_abbrev": "GA",
   "longitude": -82.7179192,
   "latitude": 31.1649301,
   "city_longitude": -82.82097399999999,
   "city_latitude": 30.9716985
 },
 {
   "city": "Colquitt",
   "country": "United States",
   "description": "During twilight you can see a figure of a black man walking East on the road as you get closer he will vanish. This is in connection With the Whites bridge rd haunting. Spring creek runs under Whites Bridge at the southeast part of the bridge. there is a small church and graveyard. Over the years the creek has flooded the banks edge and retreated over and over. You can really see head stones in the creek and on the banks behind the church. More than one report of strange sounds and lights have come from this. Mason rd runs parallel with Whites Bridge. And it is said that the souls from the disturbed graves are trying to find there way back home.",
   "location": "Mason Rd",
   "state": "Georgia",
   "state_abbrev": "GA",
   "longitude": -84.6580829,
   "latitude": 31.08616169999999,
   "city_longitude": -84.7332527,
   "city_latitude": 31.17129349999999
 },
 {
   "city": "Colquitt",
   "country": "United States",
   "description": "Apparition of a woman walking on the bridge accompanied by the cry of a child.",
   "location": "Whites Bridge Road",
   "state": "Georgia",
   "state_abbrev": "GA",
   "longitude": -84.6823399,
   "latitude": 31.0776172,
   "city_longitude": -84.7332527,
   "city_latitude": 31.17129349999999
 },
 {
   "city": "Columbus",
   "country": "United States",
   "description": "It is the third bridge off Whitesville Road deep in the woods. The story goes two ways: a woman either drowned her child in the creek or the child drowned accidentally. If you turn off your car engine while sitting on that bridge sometimes it will not come back on. You will also hear a baby crying (hence the name). People have also sighted a figure in white walking through the woods near the bridge.",
   "location": "Crybaby Bridge/ Whitesville Road",
   "state": "Georgia",
   "state_abbrev": "GA",
   "longitude": null,
   "latitude": null,
   "city_longitude": -84.9877094,
   "city_latitude": 32.4609764
 },
 {
   "city": "Columbus",
   "country": "United States",
   "description": "doors slamming, cold spots, strange moaning from the middle bedroom, feelings of insanity/confusion upon entering",
   "location": "House of a Thousand Cadavers",
   "state": "Georgia",
   "state_abbrev": "GA",
   "longitude": null,
   "latitude": null,
   "city_longitude": -84.9877094,
   "city_latitude": 32.4609764
 },
 {
   "city": "Columbus",
   "country": "United States",
   "description": "The Auditorium - The story goes that a girl was watching her boyfriend perform a play, when she yelled his name she fell over the balcony and died on impact. If you go in there you well see her wandering the balcony and stage.",
   "location": "Jordan Vocational High School",
   "state": "Georgia",
   "state_abbrev": "GA",
   "longitude": -84.96992879999999,
   "latitude": 32.4944986,
   "city_longitude": -84.9877094,
   "city_latitude": 32.4609764
 },
 {
   "city": "Columbus",
   "country": "United States",
   "description": "Construction Room -  The construction room is haunted also a teenager was walking in there and was impaled by a metal rod thru the heart. Sometimes you will see him walking around holding his chest, also you will hear someone moaning.",
   "location": "Jordan Vocational High School",
   "state": "Georgia",
   "state_abbrev": "GA",
   "longitude": -84.96992879999999,
   "latitude": 32.4944986,
   "city_longitude": -84.9877094,
   "city_latitude": 32.4609764
 },
 {
   "city": "Columbus",
   "country": "United States",
   "description": "You can sometime hear the talking and feel cold chills walking down the Riverwalk. Some people say that it is the Confederate Soldiers and their dance partners from the night.",
   "location": "River Walk Downtown",
   "state": "Georgia",
   "state_abbrev": "GA",
   "longitude": -84.9943244,
   "latitude": 32.4630776,
   "city_longitude": -84.9877094,
   "city_latitude": 32.4609764
 },
 {
   "city": "Columbus",
   "country": "United States",
   "description": "Very haunted. Most of the haunting takes place in the attic and upper floors. Doors slamming, cold spots, sightings etc.",
   "location": "Springer Opera House",
   "state": "Georgia",
   "state_abbrev": "GA",
   "longitude": -84.99116099999999,
   "latitude": 32.465176,
   "city_longitude": -84.9877094,
   "city_latitude": 32.4609764
 },
 {
   "city": "Columbus",
   "country": "United States",
   "description": "Creek - If you go down in the creek late at night. You can see a clown sitting there crying on the creek bed. Also there are some children that come out to play with you they will say(COME OVER HERE WITH US WE WANT YOU TO SEE OUR HOUSE). If you park your car or truck there it will not start for an hour. There is a tunnel down to the left that slaves died in. You can hear them moaning and screaming for help.",
   "location": "Twin Chapel",
   "state": "Georgia",
   "state_abbrev": "GA",
   "longitude": -84.97476600000002,
   "latitude": 32.5681609,
   "city_longitude": -84.9877094,
   "city_latitude": 32.4609764
 },
 {
   "city": "Cumming",
   "country": "United States",
   "description": "The old Lanier Lodge Hotel just outside downtown Cumming closed a few years back and nobody is exactly sure why. Neighbors of the complex say that they hear and see things at a constant. It is believed by many that someone was murdered in the west building on the second floor balcony hallway but wasn't publicly announced as to keep the citizens from becoming stricken with panic. When visited at night you can hear strange things as if people are coming in and out of rooms and closing doors very loudly. If you peer into the top windows of the east or west buildings you can sometimes see lights flicker but the power has been shut off for years. When walking by the pool there is sometimes a long splash or the chairs near by move around on their own as well as the unattended weeds all around the complex swishing to one side as if someone had walked through them. - April 2004 Additional info: Lanier Lodge has closed within the past year for financial reasons, and is currently for sale. The owner is liquidating the property for debt payoff in bankruptcy. There was no report of a murder that took place. Be advised that the area is HEAVILY patrolled, and you will be caught if trespassing. There is a sign in front with the name and number for a realty company. If you wish to explore, call them and arrange an appointment, or get permission from the owner first.",
   "location": "Old Lanier Lodge",
   "state": "Georgia",
   "state_abbrev": "GA",
   "longitude": -83.850545,
   "latitude": 34.338118,
   "city_longitude": -84.14019259999999,
   "city_latitude": 34.2073196
 },
 {
   "city": "Cusseta",
   "country": "United States",
   "description": "If you drive down this road in the late night and stop your vehicle right beside the pond...You will not be able to start your car back again. They say that when slavery was an issue... a Black sharecropper and his family lived beside the pond. He was hung under the old oak tree right beside the road and the pond. His family was left to starve. Some people say that while your getting your car to start a man will start walking out of the woods then disappear as he reaches your vehicle.",
   "location": "Gordy Mill Pond Road",
   "state": "Georgia",
   "state_abbrev": "GA",
   "longitude": -84.75239789999999,
   "latitude": 32.295685,
   "city_longitude": -84.77704849999999,
   "city_latitude": 32.3061354
 },
 {
   "city": "Dahlonega",
   "country": "United States",
   "description": "A building formerly owned by Fred Jones. One night after hours he is believed to have been murdered. Sometimes you can see a ghost of a man walking around in the halls of the building.",
   "location": "Fred Jones Building",
   "state": "Georgia",
   "state_abbrev": "GA",
   "longitude": null,
   "latitude": null,
   "city_longitude": -83.9843953,
   "city_latitude": 34.5261465
 },
 {
   "city": "Dahlonega",
   "country": "United States",
   "description": "This theatre has been standing for almost a century. Now newly renovated after 50 years or abandonment, weird sightings have occurred. The occurrences are after hours or before mostly. When there's not much mortal activity inside the building, you can see figures white and glowing float passed the etched glass windows. Sometimes when you see the shapes you can also feel a cold presence fall upon you. During movies, there are many strange happenings such as lights flickering and weird misty shapes appearing on the screen. Though there's no history of death in the theatre before the renovation, there are claims of a house standing in that site in the mid 1800's.",
   "location": "Holly Theatre",
   "state": "Georgia",
   "state_abbrev": "GA",
   "longitude": -83.9858825,
   "latitude": 34.531546,
   "city_longitude": -83.9843953,
   "city_latitude": 34.5261465
 },
 {
   "city": "Dahlonega",
   "country": "United States",
   "description": "In the 4th grade girls bathroom, toilets flush, water turns on by itself, stalls open and close. Moaning and crying can be heard in the last stall. Graffiti, which has been removed, has appeared again the next day. Also cold spots have been reported.",
   "location": "Lumpkin County Elementary School",
   "state": "Georgia",
   "state_abbrev": "GA",
   "longitude": -83.990499,
   "latitude": 34.5446837,
   "city_longitude": -83.9843953,
   "city_latitude": 34.5261465
 },
 {
   "city": "Dahlonega",
   "country": "United States",
   "description": "Several reported sightings of figures walking around, mainly at night. Famous photo hangs in the courthouse.",
   "location": "Mount Hope Cemetery",
   "state": "Georgia",
   "state_abbrev": "GA",
   "longitude": -83.9879838,
   "latitude": 34.5265426,
   "city_longitude": -83.9843953,
   "city_latitude": 34.5261465
 },
 {
   "city": "Dahlonega",
   "country": "United States",
   "description": "In the center of town, this old Civil War building used to be the town courthouse and jail. A tall figure in a hooded robe has been seen in the windows and on the balcony after hours. There is knocking from through the walls, and clanking noises from the attic and basement.",
   "location": "The Gold Museum",
   "state": "Georgia",
   "state_abbrev": "GA",
   "longitude": -83.9848512,
   "latitude": 34.5326709,
   "city_longitude": -83.9843953,
   "city_latitude": 34.5261465
 },
 {
   "city": "Dahlonega",
   "country": "United States",
   "description": "A large pile of stones located just north of Dahlonega at the center of the intersection of U.S. 19 and S.R. 60 is the grave of Cherokee princess Trahlyta. Trahlyta was a young woman that sought out The Witch of Cedar Mountain to help her retain her beauty and youth. The Witch directed her to a medicine spring that held the powers of The Great Spirit. But later, a rejected suitor named Wahsega kidnapped Trahlyta, and kept away from the waters of the spring, she faded and died. It is said if you place stones on her grave her spirit will bring you good fortune, but it is also said if you remove stones, the Witch of Cedar Mountain will curse you. Two times road construction workers have tried to move the stones, and both times the trucks have inexplicably wrecked off the side of the mountain, some people have even died. The spring, now called Porter Spring, is rumored to have healing powers.",
   "location": "Stone Pile Gap",
   "state": "Georgia",
   "state_abbrev": "GA",
   "longitude": -83.96934159999999,
   "latitude": 34.6272485,
   "city_longitude": -83.9843953,
   "city_latitude": 34.5261465
 },
 {
   "city": "Dalton",
   "country": "United States",
   "description": "at this old unnamed cemetery, people have seen a hooded phantom with glowing eyes.",
   "location": "Old Black Cemetery",
   "state": "Georgia",
   "state_abbrev": "GA",
   "longitude": -84.9835288,
   "latitude": 34.7668627,
   "city_longitude": -84.9702228,
   "city_latitude": 34.7698021
 },
 {
   "city": "Dalton",
   "country": "United States",
   "description": "you are mysteriously pushed up a small hill when you put your car in neutral and turn out headlights; the hill is known as Gravity Hill.",
   "location": "Dalton Cemetery",
   "state": "Georgia",
   "state_abbrev": "GA",
   "longitude": -84.9816857,
   "latitude": 34.7698007,
   "city_longitude": -84.9702228,
   "city_latitude": 34.7698021
 },
 {
   "city": "Dalton",
   "country": "United States",
   "description": "The area is haunted by the spirit of Cherokee chief Red Bird. It's said the chief was thrown from his horse during a race and died of his injuries. According to legend he's buried underneath where the railroad tracks now run. Train crews have reported strange lights around the bend of Crown Cotton Mills, and there have been many strange car accidents along the tracks, caused by the angry Chief.",
   "location": "Downtown railroad tracks",
   "state": "Georgia",
   "state_abbrev": "GA",
   "longitude": -84.966977,
   "latitude": 34.7695646,
   "city_longitude": -84.9702228,
   "city_latitude": 34.7698021
 },
 {
   "city": "Dalton",
   "country": "United States",
   "description": "Mitchell Bridge - There was a guy that was buried in the graveyard that was killed by decapitation that was said to be rich and buried his money somewhere. On a rainy, stormy, foggy night you will see a headless horseman and he will chase you to tell you were the money is buried.",
   "location": "Chatsworth",
   "state": "Georgia",
   "state_abbrev": "GA",
   "longitude": -84.7703066,
   "latitude": 34.7591825,
   "city_longitude": -84.9702228,
   "city_latitude": 34.7698021
 },
 {
   "city": "Dalton",
   "country": "United States",
   "description": "The heads of the facility will deny it, but if you talk to some of the employees, you will find out it is true It is Hamilton Medical Center. Her name is Matilda. She used to work in the laundry room. She is always sighted, or at least heard from, when there is going to be a death. She may make a noise; one even reported seeing a fire ball go down the hall and into a patient's room. The patient died later that night. She has also been seen in human form.",
   "location": "Hamilton Medical Center",
   "state": "Georgia",
   "state_abbrev": "GA",
   "longitude": -84.984882,
   "latitude": 34.789783,
   "city_longitude": -84.9702228,
   "city_latitude": 34.7698021
 },
 {
   "city": "Dalton",
   "country": "United States",
   "description": "A black man was supposed to have died during the construction of the building in 1938, and is said to be buried on the property. People have heard footsteps and loud, unexplained banging noises.",
   "location": "The Wink Theater",
   "state": "Georgia",
   "state_abbrev": "GA",
   "longitude": -84.9685619,
   "latitude": 34.7713817,
   "city_longitude": -84.9702228,
   "city_latitude": 34.7698021
 },
 {
   "city": "Dansville",
   "country": "United States",
   "description": "During the Civil War this church would hide injured soldiers from both sides of the war. To mask the moans and groans coming from upstairs, the Preacher would play the Wind Organ loudly. In the cemetery there are many bodies buried from the war. It is said you can hear the organ playing and the moans and groans from soldiers. It has been said that you can see someone(s) on the second floor. The area around the church, in the cemetery mainly is cooler than other areas. -  June 2005 Update / WARNING: Richland Baptist Church is on the National Register of Historic Places and is protected by the Richland Restoration League, Inc. It's board of Trustees would like for your web visitors to be WARNED: The church and its surrounding grounds (cemetery, etc.) are being monitored, patrolled and guarded by armed personnel. Anyone caught trespassing on the property will be arrested and prosecuted to the fullest extent of the law. This historic national landmark (church and cemetery) has, as a result of being listed on your web site, been repeatedly vandalized and desecrated by adults and teenagers alike, from surrounding counties, predominately Houston County. Family graves, tombstones and markers have been pushed over, broken and stolen. Iron gates on family plots have been stolen; fornicating, defiling family and church property has taken place here as a result of thrill seeking teenagers and adults seeking the site out due to being listed on your web site. As a WARNING TO ALL WHO SEEK TO TRESPASS AND OR HARM THE CHURCH, IT'S CEMETARY AND OR SURROUNDING PROPERTY: YOU WILL BE ARRESTED AND PROSECUTED. Arrests of 9 people as of 10-8-04, by the Twiggs County Sheriffs Department. Anyone interested in the historical aspects of this church, who want to visit it or learn more about it, are welcome to contact a member of the Trustee Board of the Richland Restoration League, Inc. at  Twiggscounty.com",
   "location": "Old Ridgeland Baptist Church",
   "state": "Georgia",
   "state_abbrev": "GA",
   "longitude": -83.82951109999999,
   "latitude": 34.3094814,
   "city_longitude": -83.24543609999999,
   "city_latitude": 32.6057103
 },
 {
   "city": "Dawson",
   "country": "United States",
   "description": "Girls Locker Room Delaney Hall - Witnesses have seen the following in the jr. high girls locker room: Shadows on the ceiling, toilets flushing, showers being turned on, and heater turning on by themselves. Some of the girls will still tell you that they do believe that it is haunted but are still investigating.",
   "location": "Terrell Academy JV",
   "state": "Georgia",
   "state_abbrev": "GA",
   "longitude": -84.431198,
   "latitude": 31.762882,
   "city_longitude": -84.4465826,
   "city_latitude": 31.7735001
 },
 {
   "city": "Dawsonville",
   "country": "United States",
   "description": "Built on the crest of Amicalola Mountain, the area was once a spiritual place for the Cherokee. People experience cold spots and poltergeist activity, especially in the kitchen area. Doors also open and close. If you want to stay at the lodge, it's located in Amicalola State Park on GA 52, northwest of Dawsonville.",
   "location": "Amicalola Falls Lodge",
   "state": "Georgia",
   "state_abbrev": "GA",
   "longitude": -84.2424518,
   "latitude": 34.5670596,
   "city_longitude": -84.1190804,
   "city_latitude": 34.4212052
 },
 {
   "city": "Dawsonville",
   "country": "United States",
   "description": "It is located off of Salem Church Road which is off of Kelly Bridge Road. It is said by many that the Salem church is haunted. It has been around since the 1800's. Some have experienced their cars shutting off, or their lights flickering. If you look in the church, you can see a pair of glowing red eyes at the alter. If you look through the windows you can see a body standing, looking outside. - March 2004 Warning: there is NO TRESPASSING. Police patrol it nightly. if you want to do an investigation (as with all of the other sites listed on this website) get permission!",
   "location": "Salem Church/Graveyard",
   "state": "Georgia",
   "state_abbrev": "GA",
   "longitude": -84.1522111,
   "latitude": 34.34243240000001,
   "city_longitude": -84.1190804,
   "city_latitude": 34.4212052
 },
 {
   "city": "Demorest",
   "country": "United States",
   "description": "Getman-Babcock Dormitory - In the girl's freshman dorm, Getman-Babcock, there is an orange ghost/outline of a person, usually found in the lobby of the dorm. In the basement, if the door is shut to the laundry room, the handle turns on its own. Also, sometimes, there is a little girl in a blue dress wearing black dressy shoes that appears on the stairs in the lobby. Other weird occurrences have been seen and heard in the dormitory.",
   "location": "Piedmont College",
   "state": "Georgia",
   "state_abbrev": "GA",
   "longitude": -83.5419975,
   "latitude": 34.5665363,
   "city_longitude": -83.5451724,
   "city_latitude": 34.565098
 },
 {
   "city": "Douglas",
   "country": "United States",
   "description": "Which is now the education building. Many people have seen an old typewriter being typed on at night. At night, the last people to leave will open all the doors down the hallway and as they begin to leave they will look back and all the doors will be closed. A nurse and her tray have often been heard going down the hall. You should definitely come and examine this place.",
   "location": "Old Douglas Hospital",
   "state": "Georgia",
   "state_abbrev": "GA",
   "longitude": -82.864471,
   "latitude": 31.5111323,
   "city_longitude": -82.8498654,
   "city_latitude": 31.5088073
 },
 {
   "city": "Douglas",
   "country": "United States",
   "description": "As the years passed years ago about six people died in the house. It is said that the grandmother died from a disease and the mother died from giving birth to her second son. Later on the father hung himself in the attic. A little while after that both of the children died from a disease. And someone else who moved in died also. If you go into the house it is very cold and it feels like someone is pressing down on your shoulders. And every 4 months you can see all of their spirits in the house.",
   "location": "The Ashley Slater House",
   "state": "Georgia",
   "state_abbrev": "GA",
   "longitude": -82.8452739,
   "latitude": 31.5078531,
   "city_longitude": -82.8498654,
   "city_latitude": 31.5088073
 },
 {
   "city": "Douglasville",
   "country": "United States",
   "description": "Named after an officer in the Civil War. The old mile and a half long road is a well-known urban legend in the area. An old barn is still present in the woods, and sounds can be heard at night. While in the barn at night visions of dead slaves can be seen through the old windows and witnesses have given first hand testimony of seeing Colonel Gray riding his horse around the barn warning trespassers to stay away. Slaves have been seen wandering the road late at night.- May 2004 additional information: If you stop there and turn off your lights and put your car in neutral, you will begin to roll very slowly, at times it feels as though you are being rocked, very strange, Though it doesn't happen every time. One group had to try 5 or 6 times before anything happened. Sounds of something walking on the bridge and in the creek have been reported. Reports of an oval shaped black shadow walk towards the car. -  JUly 2005 Update: The bridge is no longer there.",
   "location": "Gray Road",
   "state": "Georgia",
   "state_abbrev": "GA",
   "longitude": -84.7922225,
   "latitude": 33.6676954,
   "city_longitude": -84.7477136,
   "city_latitude": 33.7514966
 },
 {
   "city": "Duluth",
   "country": "United States",
   "description": "Loud knocking of outside backdoors. Then suddenly stops for a few seconds and then begins knocking.",
   "location": "Abandoned Theatre",
   "state": "Georgia",
   "state_abbrev": "GA",
   "longitude": null,
   "latitude": null,
   "city_longitude": -84.1446376,
   "city_latitude": 34.0028786
 },
 {
   "city": "Dunwoody",
   "country": "United States",
   "description": "You will walk in rooms with no windows and feel a cool breeze come across your body. There is a morgue in the basement and at sometimes you can see dead ghosts lying in the morgue trays. You hear footsteps walking down the 3-floor building steps, and can feel presence behind you. This is the all-time best place to go to if you want to be frightened.",
   "location": "Insane Asylum",
   "state": "Georgia",
   "state_abbrev": "GA",
   "longitude": -84.2952821,
   "latitude": 33.9346142,
   "city_longitude": -84.3346473,
   "city_latitude": 33.9462125
 },
 {
   "city": "East Dublin",
   "country": "United States",
   "description": "Around 1982 there was a little girl named Gracie swinging on a tire swing thinking about how to get back at her brother (for some reason unknown),well she wrote her brother a letter saying \"I hate you, I'm going to kill you.\" He found the note and saw her on the tire swing and ran over there and pusher her off, she fell and broke her neck, she died instantly. Now it's believed that she haunts the exact spot that she died at. There is a house there and in that room over her haunting spot on early some mornings you can see her swinging looking out the window (she is said to have red eyes)",
   "location": "near East Laurnes High/Middle School",
   "state": "Georgia",
   "state_abbrev": "GA",
   "longitude": -82.819732,
   "latitude": 32.561663,
   "city_longitude": -82.87180839999999,
   "city_latitude": 32.548222
 },
 {
   "city": "Eatonton",
   "country": "United States",
   "description": "Sylvia haunts the bedroom where she once lived.",
   "location": "Panola Hall",
   "state": "Georgia",
   "state_abbrev": "GA",
   "longitude": -83.3886716,
   "latitude": 33.3273384,
   "city_longitude": -83.3884961,
   "city_latitude": 33.3267997
 },
 {
   "city": "Elberton",
   "country": "United States",
   "description": "7 miles outside of Elberton, Georgia stands the Georgia Guidestones, the smaller version of Stonehenge, they are set up on a hill out in the middle of nowhere. No one knows whom the land belongs to or what the real name of the man is who had them made. They are engraved with eight different languages, they stand 19 feet high, and a time capsule is buried six feet below the stones. When you park your car there and get out you will get a faint feeling, the sky is clear only above the stones, and bats circle them at night.",
   "location": "Georgia Guidestones",
   "state": "Georgia",
   "state_abbrev": "GA",
   "longitude": -82.89442629999999,
   "latitude": 34.2320243,
   "city_longitude": -82.8670839,
   "city_latitude": 34.1112226
 },
 {
   "city": "Elbert County/Bowman",
   "country": "United States",
   "description": "Drums are heard at night coming from deep within the woods. At midnight a banging sound is heard. A ghost with a cape and long, broad hat floats out in the cattle field on late summer nights.",
   "location": "Woods on Ginn Street",
   "state": "Georgia",
   "state_abbrev": "GA",
   "longitude": null,
   "latitude": null,
   "city_longitude": -83.0307002,
   "city_latitude": 34.2048295
 },
 {
   "city": "Fairburn",
   "country": "United States",
   "description": "There's an old cemetery in the woods & they are haunted by an Amish girl who was in love with a non-Amish boy & her father found out & told her she could never see the boy again, so the girl went into the woods & hung herself. Sometimes you see her ghost on the side of the road & stop to pick her up & she tells you to go to her house. Once you stop you see her father run out of the house & start screaming at her & she runs into the woods. If you chase her, you get deep into the woods & feel something brush the top of your head & you look up to see her body hanging from a tree. Then you look again & see nothing but the remnants of an old house & a small family cemetery.",
   "location": "Peter's Woods",
   "state": "Georgia",
   "state_abbrev": "GA",
   "longitude": null,
   "latitude": null,
   "city_longitude": -84.5810418,
   "city_latitude": 33.5670562
 },
 {
   "city": "Fayette County",
   "country": "United States",
   "description": "(off of Padgett Road, near Starr's Mill)  Old hanging ground that belonged to Old Man Padgett. During a hanging, a Negro broke loose and hung Padgett from the nearby railroad bridge. Padgett still walks the tracks looking for his killer. The track has been abandoned for 15-16 years and you can still hear train horns and see figures on the dirt road, tracks, and in the woods and hear voices in the woods.",
   "location": "Old Hanging Ground",
   "state": "Georgia",
   "state_abbrev": "GA",
   "longitude": null,
   "latitude": null,
   "city_longitude": -84.4802606,
   "city_latitude": 33.4502206
 },
 {
   "city": "Fayetteville",
   "country": "United States",
   "description": "Fife House - Doc Holiday was an outlaw, who died of tuberculosis. No one knows why he haunts the house. But if you take a picture and get it enlarged he can usually be seen in the window of the top left room. This place is no longer a home but now a visitor site.",
   "location": "Holiday Dorsey",
   "state": "Georgia",
   "state_abbrev": "GA",
   "longitude": -84.455962,
   "latitude": 33.448386,
   "city_longitude": -84.4549262,
   "city_latitude": 33.4487257
 },
 {
   "city": "Fayetteville",
   "country": "United States",
   "description": "Woolsy Road Bridge - In the early 1920's the sheriff of Woolsy, use to kill blacks and he would dump there bodies into the swamp by his house. It is said if you park by the bridge and walk to the edge of the swamp that you can see the ghost of the people that were killed carrying lanterns through the swamp.",
   "location": "Woolsy",
   "state": "Georgia",
   "state_abbrev": "GA",
   "longitude": -84.4175882,
   "latitude": 33.3627119,
   "city_longitude": -84.4549262,
   "city_latitude": 33.4487257
 },
 {
   "city": "Forest Park",
   "country": "United States",
   "description": "it has a shed and when you walk towards the shed at night, you'll get this really weird feeling in the pit of your stomach, and it feels like something is pulling your soul out of you. For the next few days you will feel like you are invisible or like nothing around you is real.",
   "location": "cemetery across the street from the teen center",
   "state": "Georgia",
   "state_abbrev": "GA",
   "longitude": null,
   "latitude": null,
   "city_longitude": -84.36909179999999,
   "city_latitude": 33.6220542
 },
 {
   "city": "Fort Oglethorpe/ Lafayette",
   "country": "United States",
   "description": "There is also a women whom wears a white dress that sings a lullaby to a small infant she carries with her. She is usually seen at dusk but has also been seen during reenactments of the battle.",
   "location": "Chickamauga Battle Fields",
   "state": "Georgia",
   "state_abbrev": "GA",
   "longitude": -85.26978489999999,
   "latitude": 34.9319286,
   "city_longitude": -85.2594586,
   "city_latitude": 34.9330742
 },
 {
   "city": "Fannin County",
   "country": "United States",
   "description": "If you run around the church three times at night then the witches ghost will appear. Also a witch was burned there and on certain days you can see the fall leaves collect in a pile when there is no wind. Said to be where the witch was burned. That church was also vandalized.",
   "location": "Tiley Bend Church",
   "state": "Georgia",
   "state_abbrev": "GA",
   "longitude": -84.2445923,
   "latitude": 34.7989451,
   "city_longitude": -84.2278796,
   "city_latitude": 34.8580405
 },
 {
   "city": "Gainesville",
   "country": "United States",
   "description": "One of the United States most prestigious female universities is haunted by a ghostly shadow that hangs from the balcony of the auditorium. A young dedicated dancer supposedly hung herself after being denied lead performer in a popular ballet play. Many students and faculty continue to witness the mysterious apparition.",
   "location": "Brenau University",
   "state": "Georgia",
   "state_abbrev": "GA",
   "longitude": -83.81967519999999,
   "latitude": 34.3039749,
   "city_longitude": -83.8240663,
   "city_latitude": 34.2978794
 },
 {
   "city": "Gainesville",
   "country": "United States",
   "description": "After hours the apparition of a young brown haired girl is seen. Books also tumble off the shelves. The library was built on the site of a hotel where a murder may have occurred.",
   "location": "Chestatee Regional Library",
   "state": "Georgia",
   "state_abbrev": "GA",
   "longitude": -84.1083733,
   "latitude": 34.4187883,
   "city_longitude": -83.8240663,
   "city_latitude": 34.2978794
 },
 {
   "city": "Gainesville",
   "country": "United States",
   "description": "In north hall county off of 129, there's a rock road leading to an old wooden bridge that connects to an old grain mill. Years ago a woman threw her baby off of that bridge and if you go up to the mill, you can still hear baby's crying and yelling and what not.",
   "location": "Crybaby Mill",
   "state": "Georgia",
   "state_abbrev": "GA",
   "longitude": null,
   "latitude": null,
   "city_longitude": -83.8240663,
   "city_latitude": 34.2978794
 },
 {
   "city": "Gainesville",
   "country": "United States",
   "description": "A thirteen year old girl was killed by two boys in the boys bathroom. On the last stall to the left (in the eight grade hallway) you can hear the stall shaking. The toilet flushes sometimes without anyone moving the knob. And bloodstains appear after they have been washed several times. The administrator regrets it but the teachers report seeing it.",
   "location": "East Hall Middle School",
   "state": "Georgia",
   "state_abbrev": "GA",
   "longitude": -83.741661,
   "latitude": 34.3078537,
   "city_longitude": -83.8240663,
   "city_latitude": 34.2978794
 },
 {
   "city": "Gainesville",
   "country": "United States",
   "description": "In August of 1987 there was a girl about 11 or 12 years old that was abducted by a sheriff and was taken to Flatshoals. She was raped and murdered, and then thrown over the bluff. You can go up there about 12 midnight and hear her blood-curdling screams for help!",
   "location": "Flatshoals",
   "state": "Georgia",
   "state_abbrev": "GA",
   "longitude": -84.28361509999999,
   "latitude": 33.7063238,
   "city_longitude": -83.8240663,
   "city_latitude": 34.2978794
 },
 {
   "city": "Gainesville",
   "country": "United States",
   "description": "Hong Kong King Buffet - Formerly listed as Shoney's Brown Bridge Road - Plates rattling, footsteps, strange noises, cold spots, and claims of being touched. These occurrences usually happen after hours when there are just a few employees.",
   "location": "Jesse Jewell Parkway",
   "state": "Georgia",
   "state_abbrev": "GA",
   "longitude": -83.810397,
   "latitude": 34.3052977,
   "city_longitude": -83.8240663,
   "city_latitude": 34.2978794
 },
 {
   "city": "Gainesville",
   "country": "United States",
   "description": "A section of War Woman Dell, a little girl is supposed to be buried beside a tall oak tree where she once had a tree house. It is said on quiet days you can still hear her lonely spirit singing and playing.",
   "location": "War Woman Dell/Apple Orchard",
   "state": "Georgia",
   "state_abbrev": "GA",
   "longitude": null,
   "latitude": null,
   "city_longitude": -83.8240663,
   "city_latitude": 34.2978794
 },
 {
   "city": "Gilmer County",
   "country": "United States",
   "description": "The northern region of Gilmer County, called Whitepath, is named after the Cherokee chief who once inhabited it. Whitepath cursed any future owners of the land as he and his people were moved out on the \"Trail of Tears.\" A hotel built on the site burned to the ground in the early part of the 20th century, killing many, after the hotel itself had been home to several murders and suicides. The sounds of revelry and the sounds of screams and moans of suffering can still be heard often at the site of the hotel, which is now only marked by an overgrown driveway and its broken concrete archway. Chief Whitepath's own ghost haunts and has appeared at the nearby area where his own house once stood.",
   "location": "Whitepath",
   "state": "Georgia",
   "state_abbrev": "GA",
   "longitude": -84.4129798,
   "latitude": 34.7503624,
   "city_longitude": -84.4802606,
   "city_latitude": 34.6935359
 },
 {
   "city": "Glynn",
   "country": "United States",
   "description": "South end - On stormy nights, island folk have reported seeing a small figure, with her lantern held high, running through the fog. Her name is Mary the Wanderer, and she haunts the coast of St. Simons looking for her lost love, which was killed in a hurricane.",
   "location": "St. Simons Island",
   "state": "Georgia",
   "state_abbrev": "GA",
   "longitude": -81.3885517,
   "latitude": 31.1595905,
   "city_longitude": -81.6035062,
   "city_latitude": 31.2624169
 },
 {
   "city": "Grantville",
   "country": "United States",
   "description": "This renovated bed & breakfast is haunted by two ghosts. One of the ghosts is called Mary. She hates electricity. The second ghost is a ghost cat. The cat has been seen at least twice in a particular spot upstairs. A young girl once saw a man go up to the gate and asked about him. She identified the man in a picture of the original owner. Noises can be heard all through the night, but the ghosts are nice.",
   "location": "Bonnie Castle Bed &amp; Breakfast",
   "state": "Georgia",
   "state_abbrev": "GA",
   "longitude": -76.93181299999999,
   "latitude": 43.23884899999999,
   "city_longitude": -84.8357678,
   "city_latitude": 33.2348419
 },
 {
   "city": "Greensboro",
   "country": "United States",
   "description": "Formerly known as the Early Hill Plantation, this beautiful 3-story mansion was built in the late 1700's for Mayor John Brown. Mayor Brown and his wife had a young girl who died after a branch broke from the tree in the front yard. The young girl is seen swinging from the tree at night. If you sit in front of her bedroom mirror you may glimpse her mother brushing her hair, only to suddenly disappear. You can also hear chains rattling in the basement where slaves were kept and buried years ago. There is also a strange vision of an old woman who sits in her rocking chair on the front porch. Of course, she vanishes as soon as you step foot on the first stair. I'm sure there have been many other happenings, which have not been mentioned here. But if you happen to pass by Early Hill, don't be taken by it's beauty for it's what lies within which may haunt you.",
   "location": "Early Hill Bed and Breakfast",
   "state": "Georgia",
   "state_abbrev": "GA",
   "longitude": null,
   "latitude": null,
   "city_longitude": -83.18237890000002,
   "city_latitude": 33.5756831
 },
 {
   "city": "Griffin",
   "country": "United States",
   "description": "Janitors who have been at the school after dark have claimed to see a large shadow walking down the halls and hear tapping coming from certain lockers on the 400 hall.",
   "location": "Griffin High School",
   "state": "Georgia",
   "state_abbrev": "GA",
   "longitude": -84.3013071,
   "latitude": 33.2436456,
   "city_longitude": -84.2640904,
   "city_latitude": 33.2467807
 },
 {
   "city": "Griffin",
   "country": "United States",
   "description": "reports of spirits walking around some may even pass through you and there is to have heard loud screams after dark coming from deep down in the well.",
   "location": "old well on gainer rd",
   "state": "Georgia",
   "state_abbrev": "GA",
   "longitude": null,
   "latitude": null,
   "city_longitude": -84.2640904,
   "city_latitude": 33.2467807
 },
 {
   "city": "Griffin",
   "country": "United States",
   "description": "Many people report of hearing train whistles and feeling the tracks vibrate. Some have said to have even seen a large white object pass over the bridge. People have also seen a mysterious white light coming toward them on the bridge, which is believed to be the worker looking for his head. People have been chased out of the woods surrounding the Trestle by a mysterious figure.",
   "location": "Trestle Bridge",
   "state": "Georgia",
   "state_abbrev": "GA",
   "longitude": -84.1970634,
   "latitude": 33.321508,
   "city_longitude": -84.2640904,
   "city_latitude": 33.2467807
 },
 {
   "city": "Gwinnett",
   "country": "United States",
   "description": "The Old Mill - Off of Alcovy Road in Decula, Georgia, cars that pass by the abandoned mill see a light in the top story of the abandoned building turn on when you drive by with the reflection of a man in the window. The Mill is right off of a creek that has a bridge going over it, and if you stop on the bridge, you can see the appearance of a green glow coming from the woods behind the mill.",
   "location": "Dacula",
   "state": "Georgia",
   "state_abbrev": "GA",
   "longitude": -83.8979573,
   "latitude": 33.9887165,
   "city_longitude": -84.01674229999999,
   "city_latitude": 33.9190653
 },
 {
   "city": "Gwinnett",
   "country": "United States",
   "description": "Clayton St. Funeral home - built in the early 1900's, originally a four room funeral home, converted to residential in the 20's, is home to 2 \"suicide\" victims who have been seen roaming the grounds. Electrical devices are strangely affected, doors and windows open and close on occasion, and multiple persons have seen “ghostly” figures. Don't linger on the street too long.",
   "location": "Lawrenceville",
   "state": "Georgia",
   "state_abbrev": "GA",
   "longitude": -83.9879625,
   "latitude": 33.9562149,
   "city_longitude": -84.01674229999999,
   "city_latitude": 33.9190653
 },
 {
   "city": "Hawkinsville",
   "country": "United States",
   "description": "It is right in the middle of Hawkinsville but it is big and gothic looking kids have messed it up inside but it is a very neat place to go. Audible noises have been heard, as well as cold spots, great E.V.P.'s from this location! There are many spirits at this location, to include former nurses, doctors, and patients. Must gain permission from owners before attempting! A must for any Paranormal Investigator!",
   "location": "Hawkinsville State Hospital",
   "state": "Georgia",
   "state_abbrev": "GA",
   "longitude": -83.5007909,
   "latitude": 32.3047241,
   "city_longitude": -83.4721177,
   "city_latitude": 32.2837731
 },
 {
   "city": "Hawkinsville",
   "country": "United States",
   "description": "It is a bridge located between Hawkinsville and Cochran. The ghost of a colored man has been seen many times at this location. They say he lived under the bridge at one time.",
   "location": "Kitchen's Bottom",
   "state": "Georgia",
   "state_abbrev": "GA",
   "longitude": -83.3816853,
   "latitude": 32.2822798,
   "city_longitude": -83.4721177,
   "city_latitude": 32.2837731
 },
 {
   "city": "Hawkinsville",
   "country": "United States",
   "description": "It is said that ever since the first beauty pageant was held that: every time the winner is announced, the lights will go off and this will be said and heard in a wicked voice\" The winner is dead\" and then evil laughing voices will follow. This will happen only if it is Friday, 13th.",
   "location": "Opera House",
   "state": "Georgia",
   "state_abbrev": "GA",
   "longitude": -83.468475,
   "latitude": 32.282145,
   "city_longitude": -83.4721177,
   "city_latitude": 32.2837731
 },
 {
   "city": "Hawkinsville",
   "country": "United States",
   "description": "A man was part of a circus at one time. He trained pigs and they did tricks. It is said that he was mean to the pigs and that when he got to old to travel he settled under this bridge and built pigpens on the hill. The pigs ended up killing the man and now the man haunts the bridge and has a face of a pig.",
   "location": "Pig Man's Bridge",
   "state": "Georgia",
   "state_abbrev": "GA",
   "longitude": null,
   "latitude": null,
   "city_longitude": -83.4721177,
   "city_latitude": 32.2837731
 },
 {
   "city": "Hawkinsville",
   "country": "United States",
   "description": "After remodeling of this home a female ghost and her toddler son have been seen. You can hear the baby crying and the mother singing to the baby. One will hear walking up and down the steps and a strong smell of perfume will pass by here and there. Things fall out of cabinets. Shower curtains have been jerked open. Clothes have been picked up and folded (not such a bad thing). The owner was also pulled to the top of the steps by a force before the ladder he was on collapsed. Driving by you may see the woman standing in the window. It was found out that a maid and her son was killed in the upstairs maids quarters back after the civil war.",
   "location": "Sinyard Home",
   "state": "Georgia",
   "state_abbrev": "GA",
   "longitude": null,
   "latitude": null,
   "city_longitude": -83.4721177,
   "city_latitude": 32.2837731
 },
 {
   "city": "Heard County",
   "country": "United States",
   "description": "Through the years many people have attempted to steal or otherwise vandalize the grave of the famous psychic Mayhayley Lancaster. Most of those people have experienced extremely bad fortune, even death, after doing so. One teenage boy was killed in a car accident after trying to show off for his friends by defiling Mayhayley's grave.",
   "location": "Grave of Mayhayley Lancaster",
   "state": "Georgia",
   "state_abbrev": "GA",
   "longitude": null,
   "latitude": null,
   "city_longitude": -85.14793639999999,
   "city_latitude": 33.2990406
 },
 {
   "city": "Jackson",
   "country": "United States",
   "description": "you can hear canons going off and hear people screaming.",
   "location": "Behind the Ingles",
   "state": "Georgia",
   "state_abbrev": "GA",
   "longitude": -83.984662,
   "latitude": 33.294081,
   "city_longitude": -83.96602089999999,
   "city_latitude": 33.2945651
 },
 {
   "city": "Jackson",
   "country": "United States",
   "description": "In H-5 where executions of death row inmates are carried out, occasionally the water turns on by itself and the toilet flushes.",
   "location": "Georgia Diagnostic &amp; Classification Prison",
   "state": "Georgia",
   "state_abbrev": "GA",
   "longitude": -84.061396,
   "latitude": 33.2218339,
   "city_longitude": -83.96602089999999,
   "city_latitude": 33.2945651
 },
 {
   "city": "Jenkins County",
   "country": "United States",
   "description": "Where the battle of Shermann was located, hear children crying at night, doors open and close by themselves, etc.",
   "location": "Birdsville Mansion",
   "state": "Georgia",
   "state_abbrev": "GA",
   "longitude": null,
   "latitude": null,
   "city_longitude": -81.9971108,
   "city_latitude": 32.7781246
 },
 {
   "city": "Jonesboro",
   "country": "United States",
   "description": "A witness reports a dark figure of a huge person like image at their room doorway. Then on other occasions they saw at night, on the walls, images like bright colors on the walls, had nightmares almost every night.",
   "location": "Flint River Road Apartments",
   "state": "Georgia",
   "state_abbrev": "GA",
   "longitude": -84.3828291,
   "latitude": 33.5173724,
   "city_longitude": -84.3538128,
   "city_latitude": 33.5215013
 },
 {
   "city": "Jonesboro",
   "country": "United States",
   "description": "The Warren House was used as a hospital during the Civil War. While at the house many soldiers carved their names in the wall. At night a figure of a soldier can be seen holding a candle and looking out the window. There have been several reports of this. There is supposedly a bloodstain still on the floor in the attic. The confederate cemetery across the street is said to be haunted as well.",
   "location": "The Warren House",
   "state": "Georgia",
   "state_abbrev": "GA",
   "longitude": -84.3534417,
   "latitude": 33.5336685,
   "city_longitude": -84.3538128,
   "city_latitude": 33.5215013
 },
 {
   "city": "Kennesaw",
   "country": "United States",
   "description": "Strange figures or apparitions seen down by the swamp area behind the pool and a few houses from the pool, an old woman who committed suicide has been seen through her window.",
   "location": "Calumet West",
   "state": "Georgia",
   "state_abbrev": "GA",
   "longitude": -84.6799387,
   "latitude": 33.978405,
   "city_longitude": -84.6154897,
   "city_latitude": 34.0234337
 },
 {
   "city": "Kennesaw",
   "country": "United States",
   "description": "Kennesaw Mountain Battlefield - Disembodied voices such as marching orders being called, sounds of marching feet as if by a large number of people can be heard in the woods surrounding Cheatham Hill. Photographs have also turned up fogs and mysterious forms where none were present when the photographs were being taken. People have also heard and felt strange things around the Illinois Monument at this location.",
   "location": "Cheatham Hill",
   "state": "Georgia",
   "state_abbrev": "GA",
   "longitude": -84.59752999999999,
   "latitude": 33.9411142,
   "city_longitude": -84.6154897,
   "city_latitude": 34.0234337
 },